Bus Stop, Distance from First Station (km), Latitude, Longitude
Bus Stop,Distance from First Station (km),Latitude,Longitude
Sarai Kale Khan ISBT,0,28.5870,77.2591
Railway Bridge Road,1.2,28.616118,77.25037
I.T.O(AGCR),2.5,28.651568,77.29974
Delhi Gate,3.7,28.65035,77.23869
Red Fort,4.0,28.656473,77.242943
ISBT Kashmiri Gate,4.3,28.6688,77.2309
Old Secretariat,4.7,28.70346,77.21953
Balak Ram Hospital,4.9,28.70519,77.22320
